City_ID,City,Lat,Lng,Max Temp,Humidity,Cloudiness,Wind Speed,Country,Date
0,vila velha,-20.3297,-40.2925,24.410000000000025,77,40,1.54,BR,1680514193
1,makakilo city,21.3469,-158.0858,20.25,92,100,1.54,US,1680514252
2,punta arenas,-53.15,-70.9167,9.060000000000002,61,75,5.14,CL,1680514060
3,lebu,-37.6167,-73.65,10.230000000000018,88,4,5.7,CL,1680514275
4,fortuna,40.5982,-124.1573,3.2900000000000205,92,88,0.89,US,1680514256
5,ushuaia,-54.8,-68.3,11.810000000000002,50,0,7.72,AR,1680514247
6,rawson,-43.3002,-65.1023,5.160000000000025,93,20,2.57,AR,1680514348
7,caldas da rainha,39.4033,-9.1384,17.75,67,100,0.89,PT,1680514338
8,busselton,-33.65,115.3333,22.230000000000018,53,1,7.97,AU,1680514180
9,ponta do sol,32.6667,-17.1,23.890000000000043,76,46,0.37,PT,1680514349
10,puerto ayora,-0.7393,-90.3518,23.640000000000043,92,47,1.44,EC,1680514181
11,lorengau,-2.0226,147.2712,27.170000000000016,77,91,1.7,PG,1680514344
12,cidreira,-30.1811,-50.2056,19.189999999999998,79,24,5.74,BR,1680514345
13,provideniya,64.3833,-173.3,-12.229999999999961,96,100,1.53,RU,1680514284
14,east london,-33.0153,27.9116,19.52000000000004,88,75,10.8,ZA,1680514198
15,yichun,47.7,128.9,5.900000000000034,74,100,4.87,CN,1680514517
16,hilo,19.7297,-155.09,21.82000000000005,98,100,3.09,US,1680514016
17,hermanus,-34.4187,19.2345,19.890000000000043,76,2,4.88,ZA,1680514175
18,yagodnoye,62.55,149.6667,-22.319999999999965,91,1,1.81,RU,1680514518
19,puyo,-1.4667,-77.9833,17.29000000000002,96,96,1.08,EC,1680514519
20,rikitea,-23.1203,-134.9692,26.82000000000005,81,40,6.51,PF,1680513955
21,sumbe,-11.2061,13.8437,28.560000000000002,72,91,2.68,AO,1680514379
22,lakatoro,-16.0999,167.4164,27.629999999999995,83,36,4.54,VU,1680514521
23,la ronge,55.1001,-105.2842,-17.859999999999985,65,0,1.54,CA,1680514522
24,caravelas,-17.7125,-39.2481,25.82000000000005,73,98,4.03,BR,1680514297
25,stephenville,32.2207,-98.2023,18.0,95,100,0.45,US,1680514523
26,albany,42.6001,-73.9662,-1.7699999999999818,62,58,1.79,US,1680514199
27,tuktoyaktuk,69.4541,-133.0374,-19.599999999999966,98,95,2.84,CA,1680514178
28,moscow,55.7522,37.6156,12.860000000000014,59,100,2.21,RU,1680514246
29,mar del plata,-38.0023,-57.5575,14.490000000000009,85,0,2.57,AR,1680514260
30,sibolga,1.7427,98.7792,26.640000000000043,84,100,0.2,ID,1680514526
31,waipawa,-41.4122,175.5153,10.939999999999998,76,81,2.58,NZ,1680514526
32,mitsamiouli,-11.3847,43.2844,28.220000000000027,72,79,1.16,KM,1680514487
33,vaini,-21.2,-175.2,22.090000000000032,94,20,0.51,TO,1680514205
34,jamestown,42.097,-79.2353,4.840000000000032,68,0,4.02,US,1680514242
35,kontagora,10.3999,5.4695,35.73000000000002,7,87,2.55,NG,1680514528
36,cabatuan,10.8794,122.486,27.610000000000014,69,64,4.29,PH,1680514529
37,west bay,19.3667,-81.4167,25.560000000000002,84,1,0.45,KY,1680514530
38,saint-philippe,-21.3585,55.7679,26.77000000000004,75,56,3.53,RE,1680514187
39,talnakh,69.4865,88.3972,-16.41999999999996,92,100,5.92,RU,1680514367
40,nelson bay,-32.7167,152.15,22.220000000000027,85,95,7.15,AU,1680514532
41,serpa,37.9458,-7.5975,16.980000000000018,27,49,2.22,PT,1680514533
42,zyryanka,65.75,150.85,-17.559999999999974,89,13,4.21,RU,1680514535
43,port townsend,48.117,-122.7605,3.6100000000000136,86,75,2.68,US,1680514535
44,swift current,50.2834,-107.8014,-10.549999999999955,85,75,2.57,CA,1680514536
45,poum,-20.2333,164.0167,27.260000000000048,78,100,6.01,NC,1680514265
46,atuona,-9.8,-139.0333,26.590000000000032,83,99,6.24,PF,1680513948
47,bredasdorp,-34.5322,20.0403,22.960000000000036,51,11,6.33,ZA,1680514204
48,dikson,73.5069,80.5464,-25.899999999999977,93,99,4.4,RU,1680514352
49,constitucion,-35.3333,-72.4167,13.270000000000039,62,65,3.68,CL,1680514271
50,camacha,33.0833,-16.3333,17.680000000000007,68,40,7.2,PT,1680514540
51,tiksi,71.6872,128.8694,-6.439999999999998,80,100,9.95,RU,1680514199
52,hobart,-42.8794,147.3294,15.590000000000032,80,75,2.57,AU,1680514199
53,pevek,69.7008,170.3133,-32.39999999999998,100,23,2.57,RU,1680514285
54,port alfred,-33.5906,26.891,21.210000000000036,85,91,4.92,ZA,1680514187
55,sindgi,16.9167,76.2333,35.80000000000001,14,6,3.33,IN,1680514545
56,zaysan,47.4667,84.8667,2.7100000000000364,22,0,3.44,KZ,1680514405
57,lufilufi,-13.8745,-171.5986,24.879999999999995,72,100,1.29,WS,1680514546
58,oktyabrskoye,43.0645,44.7417,18.08000000000004,27,20,3.0,RU,1680514385
59,iqaluit,63.7506,-68.5145,-15.149999999999977,51,20,1.03,CA,1680514214
60,aklavik,68.2191,-135.0107,-17.339999999999975,93,96,2.92,CA,1680514189
61,morant bay,17.8815,-76.4093,24.79000000000002,84,14,3.53,JM,1680514547
62,palmas,-10.2128,-48.3603,22.930000000000007,94,40,1.54,BR,1680514548
63,avigliana,45.0771,7.3986,17.010000000000048,31,0,1.03,IT,1680514548
64,gua musang,4.8823,101.9644,26.950000000000045,82,70,1.27,MY,1680514549
65,nikolskoye,59.7035,30.7861,-1.0600000000000023,94,100,5.08,RU,1680514241
66,tartagal,-22.5164,-63.8013,18.629999999999995,85,71,1.12,AR,1680514550
67,thompson,55.7435,-97.8558,-26.909999999999968,83,0,2.06,CA,1680514173
68,cape town,-33.9258,18.4232,22.83000000000004,67,75,1.79,ZA,1680514040
69,new norfolk,-42.7826,147.0587,15.400000000000034,59,98,1.25,AU,1680514179
70,san luis,-33.295,-66.3356,16.640000000000043,81,69,2.25,AR,1680514552
71,mataura,-46.1927,168.8643,14.710000000000036,73,100,0.37,NZ,1680514185
72,airai,-8.9266,125.4092,15.890000000000043,92,87,0.37,TL,1680514256
73,huarmey,-10.0681,-78.1522,24.850000000000023,82,95,2.51,PE,1680514553
74,hithadhoo,-0.6,73.0833,28.390000000000043,67,5,3.41,MV,1680514187
75,salinopolis,-0.6136,-47.3561,25.310000000000002,83,91,3.44,BR,1680514554
76,maua,-23.6678,-46.4614,17.83000000000004,88,1,1.23,BR,1680514554
77,khatanga,71.9667,102.5,-16.549999999999955,92,100,5.16,RU,1680514197
78,flinders,-34.5833,150.8552,19.650000000000034,80,30,3.97,AU,1680514167
79,dingle,10.9995,122.6711,27.30000000000001,72,52,3.45,PH,1680514242
80,la cruz,23.9167,-106.9,20.910000000000025,51,100,1.04,MX,1680514556
81,le vauclin,14.5452,-60.8388,24.910000000000025,83,100,4.63,MQ,1680514556
82,upernavik,72.7868,-56.1549,-28.789999999999964,97,66,1.32,GL,1680514322
83,cockburn town,21.4612,-71.1419,25.010000000000048,73,0,7.16,TC,1680514435
84,kapaa,22.0752,-159.319,21.99000000000001,89,100,3.6,US,1680514172
85,mareeba,-17.0,145.4333,25.400000000000034,90,99,1.25,AU,1680514559
86,mehamn,71.0357,27.8492,-3.0299999999999727,68,0,11.32,NO,1680514191
87,qaanaaq,77.484,-69.3632,-26.799999999999983,67,0,2.86,GL,1680514211
88,torbay,47.6666,-52.7314,-0.23999999999995225,85,75,6.69,CA,1680514198
89,anloga,5.7947,0.8973,29.439999999999998,69,96,4.57,GH,1680514561
90,novobiryusinskiy,56.9578,97.7076,-2.7299999999999613,87,100,5.31,RU,1680514561
91,saldanha,-33.0117,17.9442,22.03000000000003,77,7,4.01,ZA,1680514358
92,teknaf,20.8624,92.3058,28.890000000000043,59,0,5.09,BD,1680514562
93,amapa,1.0,-52.0,19.730000000000018,99,81,0.65,BR,1680514565
94,hay river,60.8156,-115.7999,-18.00999999999999,85,75,1.54,CA,1680514565
95,seoul,37.5683,126.9778,23.78000000000003,19,0,4.63,KR,1680514566
96,saint george,37.1041,-113.5841,16.33000000000004,29,0,8.75,US,1680513938
97,mounana,-1.4085,13.1586,31.629999999999995,50,67,1.18,GA,1680514567
98,clyde river,70.4692,-68.5914,-27.869999999999976,76,0,2.57,CA,1680514012
99,arraial do cabo,-22.9661,-42.0278,22.920000000000016,83,40,3.6,BR,1680514171
100,dawei,14.0833,98.2,30.49000000000001,50,10,4.48,MM,1680514569
101,ushtobe,45.2514,77.9838,13.740000000000009,11,0,14.08,KZ,1680514476
102,tasiilaq,65.6145,-37.6368,-2.909999999999968,84,99,2.28,GL,1680514318
103,aykhal,66.0,111.5,-3.9499999999999886,89,98,7.47,RU,1680514572
104,namikupa,-10.8333,39.6,28.25,68,97,1.65,TZ,1680514573
105,ginir,7.1333,40.7,17.83000000000004,78,95,2.99,ET,1680514574
106,ancud,-41.8697,-73.8203,8.060000000000002,83,0,1.77,CL,1680513942
107,souillac,-20.5167,57.5167,29.210000000000036,70,40,6.17,MU,1680514172
108,kuytun,54.3419,101.5036,-2.3899999999999864,58,100,2.18,RU,1680514575
109,norman wells,65.282,-126.8329,-12.979999999999961,78,75,1.54,CA,1680514312
110,yellowknife,62.456,-114.3525,-21.70999999999998,77,0,2.06,CA,1680514212
111,usinsk,65.9939,57.5281,-6.17999999999995,67,6,3.85,RU,1680514576
112,sola,-13.8833,167.55,26.370000000000005,89,40,0.0,VU,1680514286
113,evensk,61.95,159.2333,-14.370000000000005,75,100,5.44,RU,1680514250
114,conakry,9.538,-13.6773,28.04000000000002,78,40,2.06,GN,1680514491
115,vardo,70.3705,31.1107,-4.009999999999991,86,0,15.43,NO,1680514308
116,sioux lookout,50.1001,-91.917,-8.95999999999998,86,100,3.6,CA,1680514205
117,ardrossan,55.6502,-4.8066,9.140000000000043,72,55,1.34,GB,1680514580
118,kutum,14.2,24.6667,30.310000000000002,9,79,5.33,SD,1680514451
119,geraldton,-28.7667,114.6,24.230000000000018,64,76,10.8,AU,1680514287
120,hobyo,5.3505,48.5268,30.52000000000004,62,32,5.25,SO,1680514411
121,ukiah,39.1502,-123.2078,4.939999999999998,79,0,3.6,US,1680514582
122,eureka,40.8021,-124.1637,3.340000000000032,93,82,0.89,US,1680514534
123,katsuura,35.1333,140.3,11.379999999999995,59,3,8.28,JP,1680514345
124,omboue,-1.5746,9.2618,29.960000000000036,65,85,4.28,GA,1680514583
125,castro,-24.7911,-50.0119,11.550000000000011,96,77,1.5,BR,1680514342
126,bengkulu,-3.8004,102.2655,26.129999999999995,85,100,2.58,ID,1680514299
127,bambanglipuro,-7.95,110.2833,26.83000000000004,81,60,3.41,ID,1680514260
128,shar,49.5886,81.0453,3.6200000000000045,36,0,2.59,KZ,1680514585
129,berdigestyakh,62.0989,126.6992,-6.729999999999961,91,100,2.0,RU,1680514585
130,severo-kurilsk,50.6789,156.125,0.4900000000000091,91,58,5.25,RU,1680514144
131,prainha,-1.8,-53.48,22.260000000000048,96,99,0.76,BR,1680514586
132,kavieng,-2.5744,150.7967,28.30000000000001,74,47,4.23,PG,1680514280
133,alpine,32.835,-116.7664,10.080000000000041,86,100,2.06,US,1680514587
134,ouargaye,11.5033,0.0572,34.80000000000001,16,61,2.1,BF,1680514587
135,namatanai,-3.6667,152.4333,27.060000000000002,80,67,3.05,PG,1680514425
136,meulaboh,4.1363,96.1285,27.83000000000004,70,89,2.88,ID,1680514369
137,avarua,-21.2078,-159.775,25.03000000000003,73,40,3.09,CK,1680514174
138,sayat,38.7839,63.8803,14.930000000000007,39,18,4.89,TM,1680514589
139,valleyview,55.0667,-117.2859,-5.4599999999999795,97,93,1.03,CA,1680514590
140,butaritari,3.0707,172.7902,28.04000000000002,77,51,6.06,KI,1680514183
141,bluff,-46.6,168.3333,14.890000000000043,75,100,4.16,NZ,1680514148
142,mananara,-16.1667,49.7667,29.5,64,66,2.57,MG,1680514591
143,anadyr,64.75,177.4833,-20.71999999999997,84,20,5.0,RU,1680514303
144,shimanovsk,52.0,127.7,0.9600000000000364,54,94,5.85,RU,1680514592
145,kodiak,57.79,-152.4072,0.7300000000000182,69,0,1.54,US,1680514195
146,corn island,12.1694,-83.0418,26.02000000000004,81,37,9.02,NI,1680514593
147,buenos aires,-34.6132,-58.3772,16.08000000000004,96,100,5.87,AR,1680514594
148,port hardy,50.6996,-127.4199,6.0,93,40,2.57,CA,1680514345
149,north bend,43.4065,-124.2243,2.730000000000018,94,40,2.57,US,1680514514
150,nanortalik,60.1432,-45.2371,-0.07999999999998408,85,100,2.06,GL,1680514373
151,januaria,-15.4833,-44.3667,22.510000000000048,66,100,1.58,BR,1680514596
152,gorin,51.1983,136.6669,0.8300000000000409,99,100,1.03,RU,1680514597
153,carnarvon,-24.8667,113.6333,24.600000000000023,72,61,6.65,AU,1680514310
154,aksarka,66.5606,67.7975,-13.489999999999952,80,10,3.85,RU,1680514598
155,santiago del estero,-27.7951,-64.2615,22.230000000000018,80,100,1.76,AR,1680514598
156,xunchang,28.4543,104.715,17.49000000000001,77,100,2.21,CN,1680514599
157,leningradskiy,69.3833,178.4167,-26.079999999999984,97,98,2.69,RU,1680514173
158,kavaratti,10.5669,72.642,28.170000000000016,67,61,5.02,IN,1680514377
159,kirakira,-10.4544,161.9205,27.33000000000004,84,66,3.17,SB,1680514600
160,ozernovskiy,51.5,156.5167,-0.37000000000000455,93,68,3.2,RU,1680514601
161,san patricio,28.017,-97.5169,23.970000000000027,97,75,3.79,US,1680514316
162,bethel,41.3712,-73.414,0.36000000000001364,60,0,0.0,US,1680514243
163,ribeira grande,38.5167,-28.7,15.990000000000009,67,20,3.09,PT,1680514245
164,bucak,37.4592,30.595,17.29000000000002,57,67,4.19,TR,1680514603
165,turochak,52.2576,87.1224,3.0300000000000296,53,24,0.32,RU,1680514604
166,san juan,-31.5375,-68.5364,17.960000000000036,79,0,3.32,AR,1680514604
167,presidencia roque saenz pena,-26.7852,-60.4388,19.189999999999998,43,0,2.58,AR,1680514317
168,pisco,-13.7,-76.2167,23.03000000000003,88,98,2.06,PE,1680514400
169,santa vitoria do palmar,-33.5189,-53.3681,17.02000000000004,85,100,1.76,BR,1680514606
170,chokurdakh,70.6333,147.9167,-15.259999999999991,88,100,5.21,RU,1680514188
171,druzhba,52.0428,33.9453,9.560000000000002,66,100,4.01,UA,1680514382
172,keuruu,62.2667,24.7,1.0,70,6,3.07,FI,1680514607
173,belaya gora,68.5333,146.4167,-18.74999999999997,95,99,2.2,RU,1680514608
174,kilindoni,-7.9139,39.6668,27.32000000000005,79,91,4.97,TZ,1680514608
175,karratha,-20.7377,116.8463,29.910000000000025,62,54,5.68,AU,1680514470
176,praia da vitoria,38.7333,-27.0667,14.860000000000014,77,20,5.5,PT,1680514466
177,luderitz,-26.6481,15.1594,25.439999999999998,39,0,8.84,NA,1680514325
178,port elizabeth,-33.918,25.5701,24.160000000000025,68,40,12.07,ZA,1680514197
179,ati,13.2154,18.3353,38.29000000000002,10,42,1.12,TD,1680514610
180,polovinnoye,54.7914,65.9864,7.28000000000003,55,0,5.11,RU,1680514611
181,yakeshi,49.2833,120.7333,-1.9399999999999977,35,16,9.31,CN,1680514612
182,chitrakonda,18.1167,82.0833,32.879999999999995,29,56,0.69,IN,1680514612
183,pudozh,61.8099,36.5345,-0.7799999999999727,83,100,6.1,RU,1680514613
184,tagusao,9.1924,117.8141,27.670000000000016,75,100,1.89,PH,1680514613
185,lavrentiya,65.5833,-171.0,-17.169999999999987,98,100,1.82,RU,1680514251
186,odweyne,9.4092,45.064,26.350000000000023,53,100,2.33,SO,1680514614
187,mahebourg,-20.4081,57.7,29.58000000000004,70,40,6.17,MU,1680514242
188,lethem,3.3803,-59.7968,22.53000000000003,79,99,4.63,GY,1680514614
189,cordoba,-31.4135,-64.1811,19.58000000000004,95,99,1.03,AR,1680514615
190,cabo san lucas,22.8909,-109.9124,21.950000000000045,52,100,5.28,MX,1680513988
191,senigallia,43.7093,13.2167,14.5,68,75,5.14,IT,1680514615
192,luena,-11.7833,19.9167,19.100000000000023,94,75,4.63,AO,1680514616
193,kargasok,59.0556,80.8572,2.420000000000016,97,100,3.5,RU,1680514616
194,tadine,-21.55,167.8833,25.610000000000014,88,56,3.25,NC,1680514616
195,lagoa,39.05,-27.9833,14.300000000000011,63,72,5.51,PT,1680514303
196,hamilton,39.1834,-84.5333,8.850000000000023,79,0,4.12,US,1680514221
197,fuerte olimpo,-21.0415,-57.8738,20.99000000000001,73,0,1.51,PY,1680514617
198,ilulissat,69.2167,-51.1,-20.98999999999998,77,0,1.54,GL,1680514356
199,kruisfontein,-34.0033,24.7314,21.05000000000001,59,21,11.76,ZA,1680514301
200,sao joao da barra,-21.6403,-41.0511,24.05000000000001,74,100,2.74,BR,1680514341
201,jumla,29.2747,82.1838,14.920000000000016,42,54,3.81,NP,1680514618
202,fairbanks,64.8378,-147.7164,-8.019999999999982,67,40,3.09,US,1680514619
203,tsalka,41.5946,44.0891,11.170000000000016,53,52,3.31,GE,1680514619
204,portland,45.5234,-122.6762,3.5200000000000387,94,75,2.24,US,1680513933
205,kununurra,-15.7667,128.7333,28.99000000000001,79,100,2.57,AU,1680514620
206,hervey bay,-25.2986,152.8535,23.420000000000016,76,18,5.14,AU,1680514288
207,paracuru,-3.41,-39.0306,24.5,88,98,1.68,BR,1680514621
208,barrow,71.2906,-156.7887,-13.989999999999952,78,100,7.2,US,1680514314
209,mount gambier,-37.8333,140.7667,12.310000000000002,87,5,2.48,AU,1680514289
210,riyadh,24.6877,46.7219,25.08000000000004,9,1,3.01,SA,1680514578
211,dubti,11.7361,41.0853,31.220000000000027,49,40,1.38,ET,1680514623
212,uyskoye,54.3775,60.0047,9.07000000000005,51,1,3.21,RU,1680514624
213,boden,65.8252,21.6886,-2.0,83,74,4.68,SE,1680514625
214,cayenne,4.9333,-52.3333,21.02000000000004,100,40,1.03,GF,1680514320
215,emerald,-23.5333,148.1667,25.700000000000045,55,64,6.43,AU,1680514395
216,lardos,36.0942,28.0157,18.860000000000014,73,32,10.22,GR,1680514627
217,klaksvik,62.2266,-6.589,8.510000000000048,91,99,9.16,FO,1680514288
218,san jeronimo,-11.9472,-75.2829,7.830000000000041,81,90,1.13,PE,1680514628
219,chuy,-33.6971,-53.4616,16.939999999999998,85,100,1.89,UY,1680514185
220,iskitim,54.6366,83.3045,1.160000000000025,76,59,4.32,RU,1680514629
221,pitimbu,-7.4706,-34.8086,24.33000000000004,78,46,2.6,BR,1680514630
222,blythe,33.6103,-114.5964,18.350000000000023,36,0,4.83,US,1680514631
223,iranshahr,27.2025,60.6848,26.189999999999998,29,0,4.12,IR,1680514631
224,tuatapere,-46.1333,167.6833,12.100000000000023,78,100,1.14,NZ,1680514273
225,sitka,57.0531,-135.33,1.9399999999999977,80,100,6.69,US,1680514004
226,bud,39.447,-86.1758,9.340000000000032,73,100,2.85,US,1680514299
227,dargaville,-35.9333,173.8833,15.490000000000009,64,29,4.61,NZ,1680514366
228,ziro,27.6333,93.8333,9.410000000000025,77,89,0.89,IN,1680514634
229,sampit,-2.5333,112.95,28.110000000000014,76,100,0.56,ID,1680514453
230,hambantota,6.1241,81.1185,32.19,62,40,3.6,LK,1680514253
231,togur,58.3631,82.8265,1.6000000000000227,98,100,3.31,RU,1680514635
232,lang son,21.8333,106.7333,27.180000000000007,71,43,3.25,VN,1680514636
233,shitanjing,39.2342,106.3439,5.689999999999998,55,100,4.28,CN,1680514637
234,maningrida,-12.0667,134.2667,28.75,70,92,2.8,AU,1680514637
235,cherskiy,68.75,161.3,-26.799999999999983,92,31,3.11,RU,1680514142
236,bambous virieux,-20.3428,57.7575,29.560000000000002,70,40,6.17,MU,1680514322
237,kangaatsiaq,68.3065,-53.4641,-24.46999999999997,100,82,1.9,GL,1680514639
238,bandarbeyla,9.4942,50.8122,29.629999999999995,62,5,4.11,SO,1680514355
239,quincy,42.2529,-71.0023,0.040000000000020464,57,20,0.45,US,1680514540
240,the valley,18.217,-63.0578,25.05000000000001,64,0,9.06,AI,1680514640
241,kulhudhuffushi,6.6221,73.07,28.05000000000001,68,27,2.93,MV,1680514247
242,san jose,37.3394,-121.895,8.75,72,0,6.17,US,1680514593
243,hulan ergi,47.2042,123.6333,7.150000000000034,16,83,6.25,CN,1680514641
244,sabancuy,18.9667,-91.1833,23.189999999999998,78,18,5.2,MX,1680514642
245,urucui,-7.2294,-44.5561,23.360000000000014,89,99,1.36,BR,1680514642
246,nehe,48.4833,124.8333,5.510000000000048,21,76,7.56,CN,1680514643
247,georgetown,5.4112,100.3354,29.960000000000036,74,20,1.54,MY,1680514254
248,bubaque,11.2833,-15.8333,25.670000000000016,77,3,5.42,GW,1680514644
249,kamenka,51.3223,42.7678,14.930000000000007,38,77,3.83,RU,1680514644
250,college,64.8569,-147.8028,-8.029999999999973,67,40,3.09,US,1680514323
251,arenapolis,-14.4503,-56.8461,20.480000000000018,97,29,1.76,BR,1680514650
252,isangel,-19.55,169.2667,26.060000000000002,89,40,0.0,VU,1680514294
253,salalah,17.0151,54.0924,32.05000000000001,55,20,5.66,OM,1680514385
254,faya,18.3851,42.4509,21.060000000000002,37,97,5.77,SA,1680514338
255,touros,-5.1989,-35.4608,24.730000000000018,84,87,2.6,BR,1680514164
256,manono,-7.3,27.4167,28.960000000000036,63,79,1.43,CD,1680514653
257,zhigansk,66.7697,123.3711,-4.019999999999982,92,100,7.81,RU,1680514172
258,porto velho,-8.7619,-63.9039,25.03000000000003,94,40,1.03,BR,1680514423
259,broken hill,-31.95,141.4333,19.100000000000023,25,69,3.51,AU,1680514655
260,yerbogachen,61.2767,108.0108,-3.0399999999999636,94,100,5.16,RU,1680514318
261,alamogordo,32.8995,-105.9603,17.340000000000032,16,0,3.6,US,1680514656
262,vila,42.0304,-8.1588,4.490000000000009,37,100,0.53,PT,1680514657
263,boueni,-12.9025,45.0761,29.99000000000001,74,73,2.41,YT,1680514657
264,chara,56.9064,118.2631,-10.109999999999957,74,100,1.81,RU,1680514658
265,olden,61.8364,6.8064,6.730000000000018,83,100,2.26,NO,1680514658
266,conceicao das alagoas,-19.9147,-48.3883,21.879999999999995,86,0,1.45,BR,1680514658
267,middelburg,-25.7751,29.4648,25.24000000000001,37,25,5.86,ZA,1680514659
268,mogadishu,2.0371,45.3438,30.930000000000007,74,20,4.63,SO,1680514370
269,olinda,-8.0089,-34.8553,24.850000000000023,88,40,0.0,BR,1680514660
270,worland,44.0169,-107.9554,0.9300000000000068,84,100,0.89,US,1680514660
271,nalut,30.3333,10.85,16.620000000000005,19,0,8.21,LY,1680514661
272,balykshi,47.0667,51.8667,14.0,51,75,4.0,KZ,1680514662
273,turtas,58.9417,69.1325,7.230000000000018,84,100,1.38,RU,1680514663
274,turukhansk,65.8167,87.9833,-4.5499999999999545,92,100,5.59,RU,1680514373
275,tilichiki,60.4667,166.1,-5.639999999999986,97,100,3.09,RU,1680514362
276,hasaki,35.7333,140.8333,12.220000000000027,48,1,7.24,JP,1680514219
277,paamiut,61.994,-49.6678,-0.5799999999999841,67,100,4.77,GL,1680514350
278,zhigalovo,54.8097,105.1578,-3.349999999999966,57,100,3.74,RU,1680514666
279,port blair,11.6667,92.75,31.02000000000004,62,75,2.57,IN,1680514384
280,aanekoski,62.6946,25.818,1.0300000000000296,42,6,3.12,FI,1680514667
281,shimoda,34.6667,138.95,12.28000000000003,65,5,6.38,JP,1680514667
282,bousso,10.4795,16.7117,37.03000000000003,21,97,1.64,TD,1680514668
283,fayaoue,-20.65,166.5333,27.390000000000043,80,81,3.66,NC,1680514669
284,eydhafushi,5.1033,73.0708,28.03000000000003,69,12,3.26,MV,1680514669
285,sfantu gheorghe,45.8667,25.7833,11.980000000000018,51,98,2.85,RO,1680514670
286,cruzeiro do oeste,-23.785,-53.0733,18.32000000000005,88,0,3.78,BR,1680514670
287,ancona,43.55,13.1667,13.600000000000023,61,75,5.14,IT,1680514523
288,cravo norte,6.3017,-70.2041,24.340000000000032,77,88,2.27,CO,1680514671
289,san matias,-16.3667,-58.4,21.75,93,5,1.94,BO,1680514672
290,kotelnich,58.3089,48.348,9.640000000000043,74,99,3.28,RU,1680514672
291,ljig,44.2301,20.2382,6.170000000000016,96,100,4.36,RS,1680514673
292,berlevag,70.8578,29.0864,-3.0,74,89,11.51,NO,1680514674
293,vanavara,60.34,102.2797,-2.7099999999999795,88,100,5.58,RU,1680514194
294,launceston,-41.45,147.1667,13.520000000000039,80,38,4.63,AU,1680514674
295,rupert,42.6191,-113.6772,-1.0299999999999727,100,100,2.06,US,1680514674
296,malkapur,20.8833,76.2,37.110000000000014,14,1,4.43,IN,1680514675
297,diffa,13.3154,12.6113,35.23000000000002,6,23,5.02,NE,1680514675
298,broome,42.2506,-75.833,0.20000000000004547,59,75,3.6,US,1680514363
299,mount pleasant,32.7941,-79.8626,16.660000000000025,96,0,0.89,US,1680514676
300,assiniboia,49.6334,-105.9845,-9.099999999999966,86,100,5.14,CA,1680514676
301,manokwari,-0.8667,134.0833,27.27000000000004,78,83,1.07,ID,1680514677
302,tamiahua,21.2667,-97.45,22.590000000000032,94,74,2.22,MX,1680514494
303,lexington,37.9887,-84.4777,8.960000000000036,63,75,3.6,US,1680514602
304,hagere hiywet,8.9833,37.85,24.82000000000005,40,31,1.31,ET,1680514678
305,zhezkazgan,47.8043,67.7144,15.990000000000009,7,0,14.0,KZ,1680514247
306,lerwick,60.1545,-1.1494,8.0,73,100,8.78,GB,1680514667
307,kurilsk,45.2333,147.8833,-1.5199999999999818,81,1,1.71,RU,1680514320
308,general roca,-39.0333,-67.5833,12.330000000000041,59,0,1.09,AR,1680514679
309,kaitangata,-46.2817,169.8464,14.400000000000034,74,95,1.31,NZ,1680514309
310,ostrovnoy,68.0531,39.5131,-4.92999999999995,81,17,4.09,RU,1680514680
311,aykino,62.2248,49.9922,0.1500000000000341,95,100,4.99,RU,1680514680
312,waslala,13.2333,-85.3833,19.430000000000007,90,81,1.23,NI,1680514680
313,polson,47.6936,-114.1632,-4.319999999999993,99,90,1.7,US,1680514666
314,hernani,43.2662,-1.9762,12.230000000000018,84,75,2.06,ES,1680514681
315,novo aripuana,-5.1206,-60.3797,21.260000000000048,99,100,0.96,BR,1680514681
316,samarai,-10.6167,150.6667,28.390000000000043,77,95,4.38,PG,1680514396
317,hirara,24.8,125.2833,22.920000000000016,64,20,6.17,JP,1680514283
318,asau,46.4333,26.4,8.510000000000048,87,100,1.09,RO,1680514385
319,yumen,40.2833,97.2,12.420000000000016,15,32,11.0,CN,1680514281
320,kahului,20.8947,-156.47,23.80000000000001,86,40,3.6,US,1680513946
321,semporna,4.4818,118.6112,25.810000000000002,86,81,0.93,MY,1680514684
322,adrar,20.5022,-10.0711,27.32000000000005,5,0,3.2,MR,1680514172
323,nyurba,63.2842,118.3319,-3.829999999999984,91,100,3.04,RU,1680514686
324,gamba,-2.65,10.0,28.260000000000048,72,94,3.75,GA,1680514686
325,ust-nera,64.5667,143.2,-16.799999999999955,99,98,2.65,RU,1680514687
326,tsumeb,-19.2333,17.7167,28.660000000000025,36,50,4.64,NA,1680514688
327,srivardhan,18.0333,73.0167,28.460000000000036,57,5,6.5,IN,1680514376
328,husavik,66.0449,-17.3389,1.7700000000000387,87,100,4.54,IS,1680514407
329,princeton,25.5384,-80.4089,24.010000000000048,91,20,0.0,US,1680514403
330,shambu,9.5667,37.1,22.950000000000045,28,34,0.28,ET,1680514690
331,butembo,0.15,29.2833,19.230000000000018,86,85,0.49,CD,1680514691
332,kashi,39.4547,75.9797,20.560000000000002,9,83,4.0,CN,1680514433
333,mandalgovi,45.7625,106.2708,-4.649999999999977,36,1,3.51,MN,1680514372
334,chumikan,54.7183,135.315,-3.109999999999957,89,100,4.34,RU,1680514693
335,bauta,22.9828,-82.5464,19.939999999999998,94,0,0.51,CU,1680514694
336,longyearbyen,78.2186,15.6401,-8.089999999999975,86,100,2.06,SJ,1680514318
337,coquimbo,-29.9533,-71.3436,13.850000000000023,100,100,1.03,CL,1680514287
338,maun,-19.9833,23.4167,30.680000000000007,28,37,3.08,BW,1680514697
339,egvekinot,66.3167,-179.1667,-18.72999999999999,97,100,2.46,RU,1680514698
340,cabra,37.4725,-4.4421,17.25,25,5,2.22,ES,1680514699
341,magistralnyy,56.1725,107.4458,-4.019999999999982,71,100,3.77,RU,1680514699
342,loandjili,-4.7561,11.8578,29.670000000000016,71,47,2.36,CG,1680514700
343,sendhwa,21.6833,75.1,34.950000000000045,16,2,4.22,IN,1680514701
344,tigil,57.8,158.6667,-3.409999999999968,96,98,4.1,RU,1680514703
345,lakes entrance,-37.8811,147.981,17.310000000000002,86,80,0.74,AU,1680514703
346,vammala,61.3333,22.9,-0.23999999999995225,68,11,3.06,FI,1680514704
347,puerto lempira,15.2667,-83.7667,23.0,89,13,2.99,HN,1680514704
348,sur,22.5667,59.5289,25.83000000000004,55,28,5.32,OM,1680514705
349,bismil,37.8486,40.6658,17.850000000000023,57,56,1.47,TR,1680514706
350,mutis,6.2262,-77.4044,25.840000000000032,86,100,1.78,CO,1680514706
351,namibe,-15.1961,12.1522,27.27000000000004,62,17,2.17,AO,1680514326
352,kuybysheve,47.358,36.6491,9.939999999999998,81,100,6.82,UA,1680514709
353,sistranda,63.7256,8.834,5.980000000000018,77,100,8.58,NO,1680514710
354,saskylakh,71.9167,114.0833,-11.370000000000005,96,100,4.78,RU,1680514710
355,healdsburg,38.6105,-122.8692,6.25,79,0,3.09,US,1680514219
356,kimbe,-5.5502,150.1429,25.74000000000001,90,100,1.95,PG,1680514258
357,khandyga,62.6667,135.6,-14.519999999999982,94,61,2.06,RU,1680514329
358,zalesovo,53.9939,84.7431,0.36000000000001364,71,58,3.12,RU,1680514712
359,victoria,22.2855,114.1577,23.439999999999998,92,35,0.89,HK,1680514205
360,sabha,27.0377,14.4283,23.80000000000001,24,0,6.14,LY,1680514713
361,ranong,9.9658,98.6348,31.960000000000036,59,71,2.98,TH,1680514713
362,chernyshevskiy,63.0128,112.4714,-4.389999999999986,93,100,4.19,RU,1680514714
363,bereznik,62.8551,42.7072,-0.08999999999997499,78,100,5.06,RU,1680514714
364,aracati,-4.5617,-37.7697,24.260000000000048,89,100,1.25,BR,1680514715
365,kodinsk,58.6881,99.1844,-2.849999999999966,91,100,4.66,RU,1680514438
366,srednekolymsk,67.45,153.6833,-23.319999999999965,91,19,2.29,RU,1680514428
367,hovd,48.0056,91.6419,-5.579999999999984,18,0,2.31,MN,1680514379
368,matamoros,25.5333,-103.25,20.620000000000005,26,76,1.94,MX,1680514717
369,alexandria,31.2156,29.9553,25.310000000000002,31,1,1.52,EG,1680514717
370,lekoni,-1.5843,14.2591,31.52000000000004,49,77,1.62,GA,1680514718
371,vao,-22.6667,167.4833,25.590000000000032,83,26,5.55,NC,1680514296
372,barabinsk,55.3571,78.357,0.82000000000005,87,16,4.41,RU,1680514719
373,rabo de peixe,37.8,-25.5833,13.730000000000018,62,40,2.57,PT,1680514719
374,kuching,1.55,110.3333,28.350000000000023,82,75,4.63,MY,1680514719
375,leer,53.2316,7.461,7.860000000000014,55,4,1.34,DE,1680514720
376,dudinka,69.4058,86.1778,-16.44999999999999,92,100,5.75,RU,1680514720
377,dieppe,49.75,1.1667,6.2900000000000205,71,4,0.45,FR,1680514721
378,guiren,33.6697,118.1889,12.800000000000011,90,100,7.35,CN,1680514721
379,chake chake,-5.2459,39.7666,30.370000000000005,63,81,5.32,TZ,1680514722
380,ban nahin,18.2418,104.2122,34.74000000000001,35,68,2.83,LA,1680514722
381,virginia beach,36.8529,-75.978,8.900000000000034,85,20,3.09,US,1680514512
382,narsaq,60.9167,-46.05,7.1200000000000045,72,100,4.06,GL,1680514256
383,benjamin constant,-4.3831,-70.0311,23.07000000000005,98,100,0.61,BR,1680514724
384,fomboni,-12.28,43.7425,27.910000000000025,72,56,1.22,KM,1680514724
385,mount isa,-20.7333,139.5,28.870000000000005,26,62,3.6,AU,1680514346
386,honiara,-9.4333,159.95,26.58000000000004,89,41,3.17,SB,1680514115
387,dhidhdhoo,6.8833,73.1,28.08000000000004,67,28,2.75,MV,1680514726
388,komsomolskiy,40.4272,71.7189,21.400000000000034,43,88,3.09,UZ,1680514353
389,curaca,-8.9903,-39.9094,24.129999999999995,72,87,4.3,BR,1680514727
390,tevaitoa,-16.7833,-151.5,27.54000000000002,71,75,1.67,PF,1680514727
391,moree,-29.4667,149.85,23.460000000000036,45,61,3.99,AU,1680514727
392,faanui,-16.4833,-151.75,27.430000000000007,71,52,1.66,PF,1680514296
393,verkhniy mamon,50.1635,40.3832,14.550000000000011,48,79,5.0,RU,1680514729
394,jalalabad,34.4265,70.4515,18.870000000000005,62,100,3.82,AF,1680514729
395,ende,-8.8432,121.6623,26.29000000000002,86,99,1.01,ID,1680514729
396,labuhan,-6.8844,112.2051,27.650000000000034,70,86,1.64,ID,1680514255
397,mahon,39.8885,4.2658,14.310000000000002,58,20,10.29,ES,1680514730
398,den helder,52.9599,4.7593,7.210000000000036,59,4,8.05,NL,1680514731
399,naze,28.3667,129.4833,19.510000000000048,68,15,9.32,JP,1680514608
400,bilibino,68.0546,166.4372,-31.079999999999984,100,12,2.27,RU,1680514731
401,nurobod,40.9056,69.8023,18.360000000000014,61,100,3.29,UZ,1680514732
402,nahariyya,33.0059,35.0941,27.80000000000001,36,0,1.34,IL,1680514732
403,abeche,13.8292,20.8324,37.76000000000005,8,43,6.28,TD,1680514732
404,betare oya,5.6,14.0833,34.360000000000014,32,83,1.4,CM,1680514733
405,stornoway,58.2093,-6.3865,10.020000000000039,74,20,8.23,GB,1680514733
406,eleousa,39.7064,20.7925,13.840000000000032,54,100,5.66,GR,1680514734
407,monroe,43.1501,-77.6831,4.430000000000007,56,100,3.09,US,1680514613
408,gusau,12.1628,6.6614,34.54000000000002,5,90,5.02,NG,1680514734
409,abu samrah,35.3029,37.1841,21.879999999999995,33,2,0.67,SY,1680514734
410,labuan,5.2767,115.2417,29.200000000000045,70,20,1.54,MY,1680514735
411,carutapera,-1.195,-46.02,22.860000000000014,96,100,1.07,BR,1680514735
412,zhengjiatun,43.5064,123.5064,9.650000000000034,32,100,4.42,CN,1680514735
413,colac,-38.3333,143.5833,13.980000000000018,80,95,3.24,AU,1680514309
414,pangnirtung,66.1451,-65.7125,-19.109999999999985,59,97,3.25,CA,1680514736
415,tulun,54.5611,100.5792,-0.6399999999999864,52,100,2.72,RU,1680514736
416,dillon,34.4166,-79.3712,9.379999999999995,81,70,2.86,US,1680514737
417,vilhena,-12.7406,-60.1458,20.100000000000023,99,78,1.53,BR,1680514737
418,grand gaube,-20.0064,57.6608,29.650000000000034,65,31,3.13,MU,1680514377
419,poienesti,46.6167,27.5333,10.950000000000045,86,100,6.48,RO,1680514738
420,aswan,24.0934,32.907,29.900000000000034,10,5,1.1,EG,1680514738
421,bonnyville,54.2668,-110.735,-7.109999999999957,99,88,1.21,CA,1680514739
422,palmer,42.1584,-72.3287,0.4700000000000273,53,27,1.26,US,1680514305
423,guarapari,-20.6667,-40.4975,24.379999999999995,77,96,3.23,BR,1680514742
424,tsotilion,40.2667,21.3167,6.900000000000034,92,100,3.04,GR,1680514743
425,leninskoye,41.7589,69.3864,20.80000000000001,49,100,4.31,KZ,1680514743
426,aksum,14.1245,38.7244,27.189999999999998,12,29,3.22,ET,1680514744
427,nueva gerona,21.8833,-82.8,25.02000000000004,76,51,4.41,CU,1680514744
428,thung song,8.1645,99.6804,33.01000000000005,86,97,2.16,TH,1680514745
429,marzuq,14.4,46.4667,26.689999999999998,50,54,1.79,YE,1680514745
430,atherton,53.5237,-2.4935,8.270000000000039,65,8,4.02,GB,1680514746
431,rocha,-34.4833,-54.3333,13.900000000000034,99,100,0.69,UY,1680514351
432,digha,21.6833,87.55,31.33000000000004,42,4,6.5,IN,1680514748
433,dongkan,33.9997,119.8308,12.910000000000025,75,100,7.08,CN,1680514748
434,la sarre,48.8002,-79.1996,-3.159999999999968,97,100,3.49,CA,1680514749
435,yar-sale,66.8333,70.8333,-16.629999999999995,87,14,6.04,RU,1680514369
436,arlit,18.7369,7.3853,32.49000000000001,3,100,2.47,NE,1680514528
437,grindavik,63.8424,-22.4338,8.260000000000048,87,100,13.38,IS,1680514315
438,micheweni,-4.9667,39.8333,29.870000000000005,67,55,5.4,TZ,1680514751
439,burnie,-41.0667,145.9167,12.75,87,92,2.56,AU,1680514752
440,te anau,-45.4167,167.7167,11.230000000000018,80,99,0.61,NZ,1680514358
441,sao filipe,14.8961,-24.4956,23.890000000000043,70,10,3.34,CV,1680514324
442,tynda,55.1667,124.7167,-9.120000000000005,83,95,5.7,RU,1680514753
443,yeppoon,-23.1333,150.7333,24.879999999999995,80,25,5.17,AU,1680514754
444,batticaloa,7.7102,81.6924,29.360000000000014,71,79,6.13,LK,1680514754
445,waddan,29.1614,16.139,21.129999999999995,21,0,7.75,LY,1680514755
446,khuzdar,27.7384,66.6434,25.52000000000004,6,0,8.28,PK,1680514756
447,abrau-dyurso,44.69,37.59,14.710000000000036,88,60,5.7,RU,1680514757
448,port hedland,-20.3167,118.5667,32.03000000000003,62,35,7.2,AU,1680514346
449,saint-paul,-21.0096,55.2707,32.05000000000001,86,72,0.45,RE,1680514758
450,sibot,45.95,23.3333,8.430000000000007,87,100,2.26,RO,1680514759
451,aden,12.7794,45.0367,28.890000000000043,75,100,5.03,YE,1680514759
452,tabou,4.423,-7.3528,29.629999999999995,67,58,2.38,CI,1680514760
453,santa rosa,14.3122,121.1114,31.730000000000018,68,12,6.76,PH,1680514761
454,mapimi,25.8167,-103.85,19.54000000000002,16,19,1.7,MX,1680514762
455,padang,-0.9492,100.3543,29.03000000000003,79,56,1.87,ID,1680514272
456,placido de castro,-10.3353,-67.1856,21.660000000000025,99,89,1.05,BR,1680514764
457,gobabis,-22.45,18.9667,27.710000000000036,30,1,2.78,NA,1680514393
458,fort frances,48.5999,-93.4003,-0.46999999999997044,86,100,3.09,CA,1680514204
459,urumqi,43.801,87.6005,1.5300000000000296,20,75,5.0,CN,1680514410
460,tual,-5.6667,132.75,27.32000000000005,79,54,6.01,ID,1680514766
461,wuwei,37.9281,102.6414,10.640000000000043,36,19,6.4,CN,1680514767
462,alofi,-19.0595,-169.9187,24.939999999999998,94,75,1.54,NU,1680514218
463,okhotsk,59.3833,143.3,-11.139999999999986,81,0,2.95,RU,1680514768
464,khetia,21.6667,74.5833,36.39000000000004,15,0,4.33,IN,1680514768
465,tiznit,29.5833,-9.5,21.400000000000034,41,0,2.37,MA,1680514769
466,maragogi,-9.0122,-35.2225,24.840000000000032,84,91,0.92,BR,1680514197
467,muscat,23.6139,58.5922,27.010000000000048,46,2,6.75,OM,1680514770
468,umm lajj,25.0213,37.2685,27.03000000000003,37,3,5.89,SA,1680514771
469,tucupita,9.0622,-62.051,21.060000000000002,99,95,1.35,VE,1680514771
470,ewa beach,21.3156,-158.0072,21.03000000000003,92,100,1.54,US,1680514234
471,san policarpo,12.1791,125.5072,26.25,80,99,3.72,PH,1680514448
472,maltahohe,-24.8333,16.9833,27.27000000000004,22,48,2.92,NA,1680514773
473,manjacaze,-24.7117,33.8828,28.370000000000005,53,0,2.27,MZ,1680514774
474,flin flon,54.7682,-101.865,-25.869999999999976,100,98,1.65,CA,1680514775
475,barbacena,-21.2258,-43.7736,14.970000000000027,95,100,2.56,BR,1680514775
476,floro,61.5996,5.0328,8.310000000000002,65,75,6.17,NO,1680514776
477,sarangani,5.4033,125.4636,27.07000000000005,79,100,3.94,PH,1680514777
478,maridi,4.9158,29.4742,35.75,20,32,2.58,SS,1680514777
479,xilopolis,40.9271,23.1794,10.79000000000002,86,100,6.5,GR,1680514778
480,nome,64.5011,-165.4064,-20.46999999999997,84,0,1.54,US,1680514273
481,mago,53.2514,140.1822,0.4300000000000068,94,100,1.85,RU,1680514779
482,pangody,65.85,74.4859,-12.889999999999986,90,100,7.53,RU,1680514779
483,pimenta bueno,-11.6725,-61.1936,20.810000000000002,99,53,1.21,BR,1680514713
484,lere,10.387,8.5726,33.73000000000002,7,37,2.28,NG,1680514781
485,sarkand,45.41,79.9186,13.410000000000025,17,0,5.12,KZ,1680514781
486,salta,-24.7859,-65.4117,19.33000000000004,94,75,0.0,AR,1680514596
487,domoni,-12.2569,44.5319,28.58000000000004,77,98,0.37,KM,1680514782
488,hofn,64.2539,-15.2082,7.010000000000048,93,100,5.66,IS,1680514239
489,dharampur,20.5333,73.1833,33.450000000000045,33,0,6.28,IN,1680514783
490,fort nelson,58.8053,-122.7002,-4.229999999999961,68,75,2.06,CA,1680514356
491,korla,41.7597,86.1469,7.400000000000034,14,63,3.61,CN,1680514784
492,katangli,51.7102,143.2326,-0.8999999999999773,95,100,3.17,RU,1680514785
493,kysyl-syr,63.8986,122.7617,-5.159999999999968,92,100,1.82,RU,1680514434
494,comodoro rivadavia,-45.8667,-67.5,9.920000000000016,57,0,5.14,AR,1680514672
495,kiunga,-6.1219,141.2906,24.090000000000032,97,100,0.04,PG,1680514438
496,asmara,15.3333,38.9333,21.28000000000003,27,28,1.72,ER,1680514787
497,katobu,-4.9408,122.5276,24.840000000000032,91,100,1.33,ID,1680514787
498,guiratinga,-16.3494,-53.7583,19.660000000000025,93,0,1.32,BR,1680514788
499,knin,44.0439,16.2,10.07000000000005,55,44,8.01,HR,1680514788
500,wangaratta,-36.3667,146.3333,18.5,46,98,1.72,AU,1680514789
501,orlik,52.5178,99.825,-9.120000000000005,54,78,2.12,RU,1680514790
502,axim,4.8699,-2.2405,29.950000000000045,66,18,2.65,GH,1680514790
503,beruwala,6.4788,79.9828,29.450000000000045,67,25,4.49,LK,1680514791
504,sobolevo,54.4299,31.8996,-0.47999999999996135,97,100,5.04,RU,1680514791
505,takoradi,4.8845,-1.7554,29.410000000000025,68,51,2.68,GH,1680514791
506,sept-iles,50.2001,-66.3821,-11.079999999999984,61,75,6.69,CA,1680514246
507,plovdiv,42.15,24.75,13.170000000000016,62,75,2.57,BG,1680514792
508,lompoc,34.6391,-120.4579,10.850000000000023,85,100,9.77,US,1680514792
509,longkou,37.6508,120.3286,13.120000000000005,48,100,3.9,CN,1680514792
510,san felipe,10.3399,-68.7425,21.700000000000045,97,98,1.41,VE,1680514793
511,sinop,41.7711,34.8709,10.240000000000009,62,87,0.76,TR,1680514793
512,san quintin,30.4833,-115.95,12.379999999999995,91,31,6.56,MX,1680514154
513,honningsvag,70.9821,25.9704,-2.1399999999999864,59,98,11.32,NO,1680514320
514,puerto escondido,15.85,-97.0667,26.07000000000005,75,46,2.62,MX,1680514794
515,kokstad,-30.5472,29.4241,24.55000000000001,34,73,4.59,ZA,1680514794
516,vostok,46.4856,135.8833,6.350000000000023,87,100,2.24,RU,1680514279
517,port hawkesbury,45.6169,-61.3485,-4.489999999999952,68,0,10.73,CA,1680514795
518,tinoto,5.8867,125.0706,28.54000000000002,74,40,2.57,PH,1680514795
519,alpena,45.0617,-83.4327,6.170000000000016,86,0,5.14,US,1680514795
520,salem,11.65,78.1667,35.110000000000014,36,20,2.57,IN,1680514536
521,karatau,43.1667,70.4667,18.420000000000016,16,94,6.03,KZ,1680514796
522,ust-tsilma,65.441,52.1498,-2.7299999999999613,74,62,1.82,RU,1680514796
523,gravdal,68.1214,13.5031,3.9399999999999977,93,75,3.09,NO,1680514797
524,barceloneta,18.4505,-66.5385,23.920000000000016,95,13,2.94,PR,1680514797
525,margate,51.3813,1.3862,10.390000000000043,63,8,2.24,GB,1680514377
526,fillan,63.6064,8.9696,5.689999999999998,80,100,5.44,NO,1680514797
527,catuday,16.2923,119.8062,26.610000000000014,72,1,4.33,PH,1680514798
528,caucaia,-3.7361,-38.6531,24.460000000000036,86,20,1.03,BR,1680514798
529,ballina,-28.8667,153.5667,18.77000000000004,86,10,1.95,AU,1680514798
530,sambava,-14.2667,50.1667,32.370000000000005,50,56,2.65,MG,1680514248
531,roald,62.5833,6.1333,7.960000000000036,57,0,5.66,NO,1680514374
532,lamu,-2.2717,40.902,30.33000000000004,66,41,4.75,KE,1680514799
533,krasne,49.9145,24.6134,1.740000000000009,93,100,6.2,UA,1680514800
534,les herbiers,46.8667,-1.0167,7.220000000000027,75,34,4.85,FR,1680514800
535,gigmoto,13.7796,124.39,26.02000000000004,85,43,5.01,PH,1680514801
536,khandbari,27.3747,87.2039,21.220000000000027,50,66,1.56,NP,1680514801
537,xichang,27.8964,102.2634,24.29000000000002,23,22,5.1,CN,1680514801
538,murgab,37.4966,61.9714,16.930000000000007,42,0,4.12,TM,1680514804
539,garowe,8.4054,48.4845,32.5,40,80,3.2,SO,1680514376
540,springbok,-29.6643,17.8865,19.700000000000045,36,4,1.84,ZA,1680514805
541,kostomuksha,64.571,30.5767,-3.319999999999993,78,9,2.64,RU,1680514806
542,juneau,58.3019,-134.4197,1.7900000000000205,100,100,2.06,US,1680514538
543,timra,62.487,17.3257,-1.17999999999995,69,0,1.54,SE,1680514808
544,ambulu,-8.345,113.6058,25.460000000000036,87,100,0.83,ID,1680514809
545,dekar,-21.5333,21.9333,28.640000000000043,33,23,0.91,BW,1680514810
546,itapaci,-14.9508,-49.5494,19.760000000000048,94,100,1.1,BR,1680514811
547,port macquarie,-31.4333,152.9167,17.720000000000027,85,75,3.45,AU,1680514811
548,shingu,33.7333,135.9833,13.960000000000036,74,98,0.39,JP,1680514812
549,plettenberg bay,-34.0527,23.3716,19.600000000000023,77,67,6.71,ZA,1680514812
550,granada,37.25,-3.25,13.950000000000045,14,3,2.91,ES,1680514813
551,tessalit,20.1986,1.0114,32.420000000000016,4,69,3.4,ML,1680514814
552,trelew,-43.249,-65.3051,5.150000000000034,100,75,2.57,AR,1680514470
553,chama,47.1821,8.4636,6.110000000000014,73,100,2.06,CH,1680514815
554,camacupa,-12.0167,17.4833,22.79000000000002,70,73,3.59,AO,1680514817
555,suamico,44.6319,-88.0393,5.53000000000003,68,0,4.63,US,1680514709
556,rio gallegos,-51.6226,-69.2181,8.03000000000003,66,0,7.2,AR,1680514819
557,mardin,37.3131,40.7436,12.590000000000032,67,40,1.54,TR,1680514819
558,antalaha,-14.9003,50.2788,28.83000000000004,68,92,3.92,MG,1680514820
559,loharu,28.45,75.8167,31.99000000000001,23,51,4.01,IN,1680514820
560,macedo de cavaleiros,41.5382,-6.9611,10.770000000000039,48,99,1.94,PT,1680514821
561,ehingen,48.2826,9.7275,4.520000000000039,73,75,6.17,DE,1680514821
562,smithers,54.7804,-127.1743,-4.819999999999993,74,0,1.03,CA,1680514822
563,awbari,26.5921,12.7805,23.410000000000025,22,0,5.99,LY,1680514823
564,pacific grove,36.6177,-121.9166,9.810000000000002,75,100,6.69,US,1680514377
565,alanya,36.5438,31.9998,19.07000000000005,60,48,2.4,TR,1680514823
566,kropachevo,55.0112,57.9896,11.04000000000002,32,2,4.55,RU,1680514824
567,banda aceh,5.5577,95.3222,27.810000000000002,75,100,2.69,ID,1680514432
568,kargil,34.5667,76.1,0.26000000000004775,63,100,0.3,IN,1680514825
569,kiruna,67.8557,20.2251,-5.489999999999952,54,75,7.72,SE,1680514825
570,tahta,26.7693,31.5021,29.129999999999995,9,12,1.23,EG,1680514474
571,namie,37.4833,141.0,6.660000000000025,74,0,0.95,JP,1680514826
572,esperance,-33.8667,121.9,19.600000000000023,78,69,3.53,AU,1680514369
573,byron bay,-28.65,153.6167,18.730000000000018,88,17,1.68,AU,1680514827
574,kindu,-2.95,25.95,25.960000000000036,80,71,1.72,CD,1680514828
575,woodward,36.4337,-99.3904,13.510000000000048,86,0,7.2,US,1680514828
576,ahmadpur east,29.1431,71.2598,33.25,23,64,0.38,PK,1680514829
